~VERSION INFORMATION
 VERS.                  2.0: CWLS LOG ASCII STANDARD - VERSION 2.0
 WRAP.                   NO: ONE LINE PER DEPTH STEP
~WELL INFORMATION BLOCK
#MNEM.UNIT       DATA                           DESCRIPTION
#----.----       ------------------------------ ----------------------------------
 STRT.FT         2000.0000                      :START DEPTH
 STOP.FT         2200.0000                      :STOP DEPTH
 STEP.FT            0.5000                      :STEP
 NULL.           -999.2500                      :NULL VALUE
 COMP.           GEOMIND AI                     :COMPANY
 WELL.           WELL-01                        :WELL
 FLD .           EXPLORATION FIELD              :FIELD
 LOC .           OFFSHORE                       :LOCATION
 SRVC.           GEOPHYSICAL SERVICES           :SERVICE COMPANY
 DATE.           2026-08-20                     :LOG DATE
 UWI .           12-345-67890-00                :UNIQUE WELL ID
~CURVE INFORMATION BLOCK
#MNEM.UNIT       API CODE                       CURVE DESCRIPTION
#----.----       ------------------------------ ----------------------------------
 DEPTH.FT                                       :1  DEPTH
 GR   .GAPI                                     :2  GAMMA RAY
 RHOB .G/CC                                     :3  BULK DENSITY
 NPHI .V/V                                      :4  NEUTRON POROSITY
 RT   .OHMM                                     :5  TRUE RESISTIVITY
 DT   .US/F                                     :6  SONIC TRANSIT TIME
 CALI .IN                                       :7  CALIPER
~PARAMETER INFORMATION BLOCK
#MNEM.UNIT       VALUE                          DESCRIPTION
#----.----       ------------------------------ ----------------------------------
 BSIZ.IN            8.5000                      :BIT SIZE
~A DEPTH       GR         RHOB       NPHI       RT         DT         CALI
# ...
 2104.0000    89.3792     2.3162     0.2770     1.8046   100.5611     8.5000
 2104.5000   105.6037     2.2940     0.2583     1.7609    98.7437     8.5000
 2105.0000    88.7013     2.2760     0.2845     2.6093    96.0020     8.6798
 2105.5000    91.0027     2.2896     0.2410     1.3679    94.3217     8.5000
 2106.0000    89.5449     2.2511     0.2751     1.9682    91.3421     8.5802
 2106.5000    87.4542     2.3621     0.2498     1.6157    93.7261     9.2299
 2107.0000    82.0165     2.2966     0.2346     1.7037    94.2384     8.5259
 2107.5000    86.7570     2.3002     0.2346     2.2897    92.1607     8.5000
 2108.0000    78.4418     2.3231     0.2344     1.8221    93.3258     8.5000
 2108.5000    80.4409     2.3203     0.2429     1.8492    93.1745     8.8233
 2109.0000    78.4932     2.3172     0.2415     2.1099    91.9836     8.5456
 2109.5000    80.6011     2.2917     0.2222     1.5306    90.5265     8.5000
 2110.0000    91.0144     2.3345     0.2274     1.3877    91.5382     8.9964
 2110.5000    69.3325     2.3820     0.2568     1.3398    91.4412     9.0259
 2111.0000    81.3071     2.3712     0.2474     1.0982    87.7157     8.5000
 2111.5000    68.9994     2.3840     0.2248     2.8133    92.0410     8.5000
 2112.0000    73.8714     2.3265     0.2155     1.3805    88.3287     8.9023
 2112.5000    80.8260     2.3178     0.2133     1.7196    87.8554     8.5000
 2113.0000    74.8357     2.3495     0.2173     1.7281    88.5117     8.8372
 2113.5000    68.2425     2.3608     0.1892     2.0143    86.8258     8.5000
 2114.0000    69.1565     2.3979     0.1971     2.3096    87.5171     8.8678
 2114.5000    75.2186     2.3204     0.1723     2.3827    85.4248     8.5000
 2115.0000    67.2433     2.4233     0.1996     1.7466    82.8544     8.8192
 2115.5000    71.0398     2.3789     0.1995     1.9666    84.0210     8.6043
 2116.0000    69.2367     2.3771     0.1788     2.2337    80.2199     8.5000
 2116.5000    64.7922     2.3660     0.2058     2.0262    81.9256     8.5000
 2117.0000    77.8023     2.3531     0.1599     3.1877    80.8357     8.8059
 2117.5000    69.2767     2.4340     0.1525     2.5319    79.6730     8.6318
 2118.0000    54.9991     2.4180     0.1739     2.7533    79.0136     8.7753
 2118.5000    65.0691     2.3837     0.1823     2.7865    74.6837     9.1929
 2119.0000    59.8354     2.3902     0.1878     3.2278    76.5228     8.5000
 2119.5000    66.4104     2.4256     0.1517     2.6475    76.9759     9.0852
 2120.0000    57.1872     2.4924     0.1708     1.9436    76.2779     8.6313
 2120.5000    59.5764     2.4412     0.1500     2.9660    73.0697     8.5000
 2121.0000    61.6751     2.4106     0.1440     2.4062    76.8232     8.5000
 2121.5000    62.4800     2.4550     0.1559     2.5598    71.7270     8.5433
 2122.0000    51.1529     2.4608     0.1484     3.4250    74.5676     8.8765
 2122.5000    54.4881     2.3947     0.1110     4.1221    72.6549     8.5617
 2123.0000    52.7965     2.4806     0.1528     3.2286    69.6835     9.0533
 2123.5000    50.9204     2.4818     0.1474     3.5783    73.7065     8.5000
 2124.0000    62.0367     2.5162     0.1135     5.1193    66.9539     8.5964
 2124.5000    54.2643     2.5572     0.1249     3.7980    70.3711     8.5000
 2125.0000    44.9735     2.5419     0.1225     6.7985    69.7327     8.7091
 2125.5000    54.9154     2.5064     0.1152     4.4241    65.5972     8.8661
 2126.0000    59.9959     2.4876     0.0993     2.6946    68.9392     8.5000
 2126.5000    53.6182     2.6042     0.0937     5.0053    64.8798     8.5000
 2127.0000    39.9426     2.5348     0.0998     4.7861    65.1936     8.6597
 2127.5000    44.2157     2.5395     0.1141     6.1495    64.3847     8.7310
 2128.0000    52.0837     2.5443     0.1012     5.5640    62.8557     8.7213
 2128.5000    41.3389     2.5568     0.0839     4.8154    64.0193     8.9707
 2129.0000    46.2412     2.5522     0.0977     3.9142    63.2721     8.5000
 2129.5000    47.0580     2.5449     0.0500     5.1636    57.4903     8.8041
 2130.0000    37.7315     2.5512     0.0967     4.6531    62.9138     8.9578
 2130.5000    41.2695     2.5719     0.0502     5.1741    56.3143     8.5000
 2131.0000    24.5822     2.5618     0.0677     7.0792    61.0555     8.6959
 2131.5000    34.9093     2.5617     0.0533     9.4949    60.6128     8.5000
 2132.0000    38.0334     2.5912     0.0500     7.4038    55.5649     8.5755
 2132.5000    32.3452     2.5851     0.0817     5.3702    56.3318     8.7043
 2133.0000    46.0579     2.6425     0.0546     8.1984    54.3685     8.5000
 2133.5000    30.0815     2.5223     0.0641    10.2024    55.5970     8.5000
 2134.0000    34.3936     2.6388     0.0557     7.0453    54.8787     8.6102
 2134.5000    36.6351     2.6475     0.0611     8.2295    56.5438     8.5000
 2135.0000    42.6020     2.5518     0.0527     8.9163    57.1170     8.5000
 2135.5000    27.6580     2.6075     0.0500     7.7660    56.8224     8.8038
 2136.0000    40.1227     2.6101     0.0622    11.3112    52.4647     8.5000
 2136.5000    33.8561     2.5824     0.0500     9.9217    52.7524     8.7999
 2137.0000    28.4246     2.6045     0.0500    11.7659    50.0000     8.7388
 2137.5000    35.1996     2.5974     0.0500     9.1180    50.7958     8.5000
 2138.0000    33.4713     2.6861     0.0624    10.5889    53.9930     8.5000
 2138.5000    29.0925     2.6641     0.0511    14.4789    54.9758     8.9582
 2139.0000    32.0911     2.6765     0.0500    11.7778    50.0000     8.5000
 2139.5000    29.4955     2.6622     0.0500    19.9904    50.0001     8.5000
 2140.0000    31.7013     2.6086     0.0500    12.8192    50.8920     8.7386
 2140.5000    34.1882     2.6284     0.0647    15.4846    51.2916     8.8350
 2141.0000    38.5837     2.6603     0.0500    19.0631    50.0000     8.5245
 2141.5000    24.2733     2.6103     0.0500    11.6007    51.2334     8.5000
 2142.0000    40.9691     2.6694     0.0500    11.2072    50.0000     9.0267
 2142.5000    20.4180     2.6416     0.0500    12.3631    50.1198     9.1217
 2143.0000    29.3272     2.6382     0.0500    24.5423    51.1644     8.8937
 2143.5000    32.9686     2.6711     0.0500    16.8760    50.0354     8.6256
 2144.0000    31.4062     2.6633     0.0500    36.0493    50.0000     8.5000
 2144.5000    26.8953     2.6391     0.0500    18.3268    50.0000     8.5000
 2145.0000    29.0090     2.6844     0.0500    22.7091    50.0000     8.7568
 2145.5000    27.6588     2.6167     0.0500    32.3578    50.0000     8.7255
 2146.0000    27.2843     2.6669     0.0500    37.5126    50.0000     9.0205
 2146.5000    34.6195     2.6653     0.0500    39.5626    53.5069     8.7951
 2147.0000    32.3299     2.6371     0.0500    33.8294    51.5758     8.5000
 2147.5000    27.2863     2.6548     0.0500    33.7234    50.0347     8.9156
 2148.0000    35.4874     2.6059     0.0500    31.7379    52.2184     8.5000
 2148.5000    32.7966     2.6693     0.0500    34.4102    50.3825     8.5000
 2149.0000    35.6271     2.6340     0.0512    26.3009    53.6486     8.6751
 2149.5000    35.0453     2.6217     0.0500    25.6573    52.3202     9.1987
 2150.0000    28.1177     2.6664     0.0704    32.0869    51.6709     9.5330
 2150.5000    29.8581     2.6111     0.0500    31.9863    53.1112     8.7820
 2151.0000    36.8221     2.5872     0.0590    31.0207    50.0000     8.5450
 2151.5000    36.5941     2.5797     0.0500    41.8089    50.6984     8.7604
 2152.0000    33.9238     2.6413     0.0553    45.8639    50.9690     8.8663
 2152.5000    35.1298     2.5813     0.0500    38.7917    54.0718     8.5038
 2153.0000    41.4746     2.6687     0.0500    55.1120    57.7036     9.1386
 2153.5000    32.6992     2.5498     0.0813    31.0848    59.1768     8.6690
 2154.0000    38.9904     2.6592     0.0522    39.8287    56.4886     8.7493
 2154.5000    35.8682     2.6105     0.0608    36.3361    56.7344     8.7998
 2155.0000    36.4407     2.5969     0.0732    28.6701    52.6722     8.7265
 2155.5000    43.6979     2.5790     0.0703    44.4094    55.7513     8.8517
