~VERSION INFORMATION
 VERS.                  2.0: CWLS LOG ASCII STANDARD - VERSION 2.0
 WRAP.                   NO: ONE LINE PER DEPTH STEP
~WELL INFORMATION BLOCK
#MNEM.UNIT       DATA                           DESCRIPTION
#----.----       ------------------------------ ----------------------------------
 STRT.FT         2000.0000                      :START DEPTH
 STOP.FT         2200.0000                      :STOP DEPTH
 STEP.FT            0.5000                      :STEP
 NULL.           -999.2500                      :NULL VALUE
 COMP.           GEOMIND AI                     :COMPANY
 WELL.           WELL-01                        :WELL
 FLD .           EXPLORATION FIELD              :FIELD
 LOC .           OFFSHORE                       :LOCATION
 SRVC.           GEOPHYSICAL SERVICES           :SERVICE COMPANY
 DATE.           2026-08-20                     :LOG DATE
 UWI .           12-345-67890-00                :UNIQUE WELL ID
~CURVE INFORMATION BLOCK
#MNEM.UNIT       API CODE                       CURVE DESCRIPTION
#----.----       ------------------------------ ----------------------------------
 DEPTH.FT                                       :1  DEPTH
 GR   .GAPI                                     :2  GAMMA RAY
 RHOB .G/CC                                     :3  BULK DENSITY
 NPHI .V/V                                      :4  NEUTRON POROSITY
 RT   .OHMM                                     :5  TRUE RESISTIVITY
 DT   .US/F                                     :6  SONIC TRANSIT TIME
 CALI .IN                                       :7  CALIPER
~PARAMETER INFORMATION BLOCK
#MNEM.UNIT       VALUE                          DESCRIPTION
#----.----       ------------------------------ ----------------------------------
 BSIZ.IN            8.5000                      :BIT SIZE
~A DEPTH       GR         RHOB       NPHI       RT         DT         CALI
# ...
 2052.0000    29.4901     2.6334     0.0500    50.3302    50.0000     8.7810
 2052.5000    32.4735     2.6292     0.0500    63.3219    50.0000     8.5000
 2053.0000    40.0738     2.6198     0.0500    53.7310    52.7499     8.5512
 2053.5000    31.7379     2.6457     0.0659    46.7322    50.4801     8.6123
 2054.0000    32.4073     2.6176     0.0500    55.3146    50.0000     8.5000
 2054.5000    31.0339     2.6487     0.0500    61.4631    52.8667     8.8222
 2055.0000    22.1307     2.6370     0.0500    49.3742    50.3665     8.5000
 2055.5000    31.9418     2.6290     0.0620    42.3136    51.5476     8.5314
 2056.0000    32.7564     2.6064     0.0500    30.3108    52.7100     8.5000
 2056.5000    45.1829     2.6136     0.0500    31.1330    52.7699     8.5000
 2057.0000    32.3464     2.6506     0.0524    35.9574    54.1758     8.5427
 2057.5000    35.2872     2.6398     0.0500    32.4766    52.2786     9.3238
 2058.0000    34.1063     2.5921     0.0500    34.6480    54.5927     8.8354
 2058.5000    28.9654     2.6209     0.0521    35.4442    53.4882     8.5942
 2059.0000    41.0798     2.6368     0.0676    38.1956    55.9491     8.5211
 2059.5000    39.7097     2.5603     0.0500    32.1239    56.1891     8.6067
 2060.0000    40.5162     2.6226     0.0582    35.2404    53.5967     8.7641
 2060.5000    32.6512     2.5821     0.0500    30.8347    58.1704     8.5000
 2061.0000    44.8745     2.6147     0.0794    18.5757    55.4785     8.9343
 2061.5000    31.5382     2.5701     0.0500    22.7073    58.7390     8.8146
 2062.0000    42.1926     2.5341     0.0586    26.2433    58.4498     8.8155
 2062.5000    50.9445     2.5346     0.0756    19.7476    62.0032     8.7315
 2063.0000    35.7956     2.5798     0.0965    28.7920    58.5100     8.6059
 2063.5000    38.6943     2.5810     0.0751    34.2689    58.9062     8.8019
 2064.0000    42.8221     2.5407     0.0710    30.6202    60.2310     8.7775
 2064.5000    40.6241     2.5815     0.1108    21.1285    60.3448     8.5000
 2065.0000    36.2245     2.5070     0.0642    30.0019    63.2481     8.5000
 2065.5000    45.1748     2.5491     0.0563    21.1155    59.1274     8.6306
 2066.0000    40.3915     2.5090     0.0994    18.0922    60.9785     9.0647
 2066.5000    48.9579     2.5198     0.0888    16.2608    61.6894     8.5000
 2067.0000    42.8947     2.5348     0.0846    16.7243    66.4771     8.5000
 2067.5000    56.1572     2.5015     0.1143    15.6939    68.7608     8.6494
 2068.0000    45.4198     2.5096     0.1110    17.0765    65.9045     8.6153
 2068.5000    48.6662     2.5450     0.1026    16.2962    66.5595     8.6520
 2069.0000    55.2954     2.4912     0.0957    15.0274    67.8299     8.6732
 2069.5000    46.0344     2.5271     0.1318    15.8750    70.8144     8.5330
 2070.0000    54.2957     2.4617     0.1324    18.0479    67.4440     9.0470
 2070.5000    60.6714     2.5050     0.1251    16.3145    70.5898     8.5000
 2071.0000    47.0821     2.5258     0.1582     8.8984    72.8833     8.5000
 2071.5000    57.0319     2.4018     0.1184     6.6455    72.7594     8.5690
 2072.0000    58.4016     2.4454     0.1155    14.1719    72.9643     8.5000
 2072.5000    62.0081     2.4800     0.1320     7.9679    75.4179     8.5472
 2073.0000    52.9131     2.4499     0.1457     9.8985    68.8417     9.0984
 2073.5000    53.4954     2.4605     0.1540     7.6039    76.4372     8.6063
 2074.0000    63.7072     2.4246     0.1508     6.2784    74.6064     8.6692
 2074.5000    63.5809     2.4386     0.1637    10.2852    73.0854     8.5000
 2075.0000    64.3447     2.4247     0.1436    10.3282    78.5992     8.5000
 2075.5000    65.8172     2.4578     0.1880     7.2533    81.1515     8.5000
 2076.0000    61.6731     2.4238     0.1691     4.3573    78.9528     8.5047
 2076.5000    67.2171     2.4198     0.1910     6.6664    81.9522     8.9845
 2077.0000    68.4970     2.3908     0.1833     7.9062    84.0843     8.7673
 2077.5000    64.4280     2.3820     0.1889     4.9120    84.2963     8.5000
 2078.0000    78.2878     2.3773     0.1944     6.8857    85.7457     8.6740
 2078.5000    72.2773     2.3958     0.1963     6.2900    84.7410     8.7495
 2079.0000    64.8898     2.3651     0.2030     6.8994    84.1895     8.9420
 2079.5000    75.0552     2.3802     0.2170     5.9385    81.6065     9.0742
 2080.0000    67.8121     2.4277     0.2037     4.4197    85.0792     8.5000
 2080.5000    77.5200     2.3856     0.2150     6.9744    84.6340     8.5000
 2081.0000    80.2614     2.3438     0.2065     4.8900    91.3989     8.5000
 2081.5000    71.2328     2.3838     0.2329     4.8299    87.4284     8.5298
 2082.0000    81.0039     2.3298     0.2046     3.7587    88.7356     8.7399
 2082.5000    79.0837     2.2754     0.2451     4.0359    90.2862     8.8962
 2083.0000    81.9440     2.3009     0.2207     3.4987    89.9486     8.5772
 2083.5000    88.1117     2.2697     0.2030     3.9578    93.9132     8.5040
 2084.0000    78.1742     2.3101     0.2295     5.8683    89.9223     8.6455
 2084.5000    76.3843     2.3162     0.2204     2.7733    92.1834     8.5000
 2085.0000    76.4348     2.3611     0.2461     2.5231    90.9171     9.2269
 2085.5000    77.5096     2.3159     0.2266     4.9407    90.3505     8.5000
 2086.0000    81.8854     2.2950     0.2324     3.2315    92.3355     8.6554
 2086.5000    84.6341     2.3220     0.2134     2.8015    94.0329     9.2071
 2087.0000    84.9439     2.2266     0.2375     4.0045    93.7751     8.6020
 2087.5000    88.3022     2.2960     0.2103     2.6459    93.7537     8.5430
 2088.0000    84.8103     2.3082     0.2252     4.4733    92.8084     8.5000
 2088.5000    92.5645     2.2370     0.2626     3.3194    95.9144     8.5459
 2089.0000    84.4969     2.3122     0.2651     2.4549    93.5074     9.0119
 2089.5000    99.9158     2.2847     0.2616     4.3700    98.4492     8.5000
 2090.0000    89.9087     2.2590     0.2426     2.2411    97.4819     9.0600
 2090.5000    82.9303     2.2875     0.2581     2.9641    94.7650     8.5000
 2091.0000    82.2672     2.3340     0.2604     2.5980    97.3996     8.5200
 2091.5000    90.4088     2.2688     0.2446     3.1791    96.8260     8.5000
 2092.0000    87.2228     2.2685     0.2859     3.2816    99.2551     8.7766
 2092.5000    92.2223     2.2452     0.2778     2.2456   101.5579     8.5000
 2093.0000    91.2989     2.2316     0.2624     1.8256    95.3603     8.7387
 2093.5000    88.8168     2.2804     0.2671     2.3538    99.5475     9.2073
 2094.0000    85.1628     2.2283     0.2707     1.7678    99.1771     8.5000
 2094.5000    82.0057     2.2549     0.2377     3.2094   100.9926     8.6569
 2095.0000    87.4977     2.2375     0.2652     2.0373   100.2016     8.5000
 2095.5000    94.1295     2.2654     0.2592     1.7767    98.3690     8.7278
 2096.0000    91.0021     2.2605     0.2547     1.9761    99.3049     8.6057
 2096.5000    83.7538     2.2812     0.2657     1.3623    98.3933     8.5000
 2097.0000    90.8659     2.2347     0.2970     1.4586   102.1520     8.7464
 2097.5000    91.9108     2.2420     0.2795     2.3643   100.0295     9.1413
 2098.0000    85.5158     2.2211     0.2612     1.5171   103.7483     8.5427
 2098.5000    90.6214     2.2377     0.2780     1.3662    99.7560     8.8159
 2099.0000    90.0282     2.2631     0.2899     1.9402    98.3642     8.5000
 2099.5000    83.8738     2.2755     0.2822     2.2244    96.6298     8.5000
 2100.0000    91.1961     2.2263     0.2685     1.9745    95.8997     8.7417
 2100.5000    91.9970     2.2815     0.2571     2.0826    96.1593     9.0452
 2101.0000    94.3618     2.2977     0.2763     1.3779    99.6564     8.7067
 2101.5000    93.9368     2.2713     0.2706     1.1725    99.9073     8.5061
 2102.0000    81.4689     2.3173     0.2769     2.2821    95.4687     8.5998
 2102.5000    83.3261     2.2400     0.2716     1.4905   100.1361     8.5000
 2103.0000    90.2172     2.2284     0.2763     1.5080    97.0689     8.7814
 2103.5000    89.8071     2.2151     0.2509     2.1612    97.9920     8.8647
