~VERSION INFORMATION
 VERS.                  2.0: CWLS LOG ASCII STANDARD - VERSION 2.0
 WRAP.                   NO: ONE LINE PER DEPTH STEP
~WELL INFORMATION BLOCK
#MNEM.UNIT       DATA                           DESCRIPTION
#----.----       ------------------------------ ----------------------------------
 STRT.FT         2000.0000                      :START DEPTH
 STOP.FT         2200.0000                      :STOP DEPTH
 STEP.FT            0.5000                      :STEP
 NULL.           -999.2500                      :NULL VALUE
 COMP.           GEOMIND AI                     :COMPANY
 WELL.           WELL-01                        :WELL
 FLD .           EXPLORATION FIELD              :FIELD
 LOC .           OFFSHORE                       :LOCATION
 SRVC.           GEOPHYSICAL SERVICES           :SERVICE COMPANY
 DATE.           2026-08-20                     :LOG DATE
 UWI .           12-345-67890-00                :UNIQUE WELL ID
~CURVE INFORMATION BLOCK
#MNEM.UNIT       API CODE                       CURVE DESCRIPTION
#----.----       ------------------------------ ----------------------------------
 DEPTH.FT                                       :1  DEPTH
 GR   .GAPI                                     :2  GAMMA RAY
 RHOB .G/CC                                     :3  BULK DENSITY
 NPHI .V/V                                      :4  NEUTRON POROSITY
 RT   .OHMM                                     :5  TRUE RESISTIVITY
 DT   .US/F                                     :6  SONIC TRANSIT TIME
 CALI .IN                                       :7  CALIPER
~PARAMETER INFORMATION BLOCK
#MNEM.UNIT       VALUE                          DESCRIPTION
#----.----       ------------------------------ ----------------------------------
 BSIZ.IN            8.5000                      :BIT SIZE
~A DEPTH       GR         RHOB       NPHI       RT         DT         CALI
 2000.0000    91.9752     2.2354     0.2694     4.4590    98.6109     8.6640
 2000.5000    88.9672     2.2524     0.2617     4.1416    97.8088     8.6004
 2001.0000    93.0309     2.2528     0.2627     4.3048   100.0724     8.5000
 2001.5000    97.5085     2.2372     0.2649     3.7804   103.1605     8.7978
 2002.0000    88.7902     2.2689     0.2732     3.9766   100.6136     8.8813
 2002.5000    88.8246     2.2180     0.2628     3.4980    99.4914     8.5000
 2003.0000    97.8924     2.2458     0.2888     7.5423    99.4133     8.5000
 2003.5000    93.8012     2.2538     0.2564     3.9520    96.8436     8.5000
 2004.0000    87.5511     2.2661     0.2668     4.6854   101.6816     8.5000
 2004.5000    92.5124     2.2727     0.2626     4.8662    99.6773     8.8488
 2005.0000    87.3506     2.2185     0.2904     7.3734    99.3621     8.5419
 2005.5000    87.1742     2.2073     0.2710     5.8609   105.9719     8.5206
 2006.0000    90.5150     2.2930     0.2827     8.7426   100.0185     8.5000
 2006.5000    79.5085     2.2661     0.2440     5.8755    97.7255     8.7906
 2007.0000    80.1878     2.2355     0.2693     7.6545    98.1576     8.5000
 2007.5000    85.7064     2.3064     0.2774     6.1972   101.0618     8.6180
 2008.0000    83.1275     2.2655     0.2640    12.8837    98.7196     8.6832
 2008.5000    89.4054     2.2998     0.2773     6.2608    95.3186     9.0082
 2009.0000    82.9056     2.2691     0.2520     9.2530    99.7099     8.5000
 2009.5000    79.9652     2.3316     0.2792    10.4383    96.1860     8.5000
 2010.0000    93.9060     2.3255     0.2908    10.3899   100.8947     8.6552
 2010.5000    84.9704     2.2685     0.2490     9.4776    98.9095     9.1402
 2011.0000    85.9294     2.3085     0.2457    10.0518    95.4318     8.9717
 2011.5000    77.9321     2.3023     0.2720    10.9546    98.4419     8.6629
 2012.0000    81.7701     2.3278     0.2717    10.9770    95.5457     8.5000
 2012.5000    84.4557     2.2617     0.2378    14.8424    96.6231     8.8421
 2013.0000    77.5285     2.3154     0.2368    20.7041    95.3724     8.5000
 2013.5000    84.5186     2.3308     0.2363    11.4573    92.1740     8.7429
 2014.0000    78.9683     2.2508     0.2177     9.9450    92.0225     8.7516
 2014.5000    79.8201     2.2726     0.2213    13.9774    94.7921     8.9181
 2015.0000    77.5534     2.2517     0.2172    27.0272    91.4654     9.4279
 2015.5000    89.0839     2.3098     0.2178    12.9697    90.7115     8.7177
 2016.0000    78.9935     2.3445     0.2257    23.7987    88.9739     8.5000
 2016.5000    72.9898     2.3732     0.2266    25.0971    91.0792     8.5923
 2017.0000    81.5881     2.3357     0.2432    15.6878    93.6879     8.5000
 2017.5000    70.5488     2.3878     0.2016    21.2192    86.7425     8.5000
 2018.0000    76.8565     2.3032     0.2280    28.2756    88.2252     8.5000
 2018.5000    65.1553     2.2992     0.2066    18.5875    90.2859     8.5000
 2019.0000    67.4377     2.3545     0.2056    20.1904    86.5729     8.6457
 2019.5000    74.1722     2.3736     0.2129    19.2975    86.8947     8.5000
 2020.0000    75.9749     2.3671     0.1823    18.2031    83.1107     8.9363
 2020.5000    72.2204     2.3122     0.2012    20.6261    85.3263     8.6001
 2021.0000    69.8537     2.3778     0.1942    18.8122    83.3190     8.5972
 2021.5000    67.9832     2.3476     0.1953    26.1507    84.8787     8.5016
 2022.0000    61.1424     2.4132     0.1885    22.5974    84.4873     8.6466
 2022.5000    63.9725     2.4105     0.2171    29.5901    86.4889     8.8475
 2023.0000    64.2969     2.3778     0.1668    20.3521    81.6593     8.5000
 2023.5000    70.9067     2.3971     0.1645    32.6159    80.3358     8.5000
 2024.0000    66.3540     2.3873     0.1592    37.9784    79.2520     8.5089
 2024.5000    54.8303     2.4238     0.1562    20.5278    77.3316     8.5000
 2025.0000    64.2715     2.4610     0.1510    36.6718    77.8862     8.5000
 2025.5000    59.7283     2.4094     0.1744    46.1931    75.7873     8.5000
 2026.0000    57.2699     2.4608     0.1739    27.2515    75.8823     8.8623
 2026.5000    62.7129     2.4364     0.1401    54.6773    77.3473     8.6788
 2027.0000    63.8100     2.4352     0.1321    42.2953    71.8661     8.6581
 2027.5000    62.3133     2.4624     0.1477    33.6793    75.3272     8.8553
 2028.0000    52.4654     2.4412     0.1284    40.3077    74.8521     8.5588
 2028.5000    54.1236     2.4623     0.1422    47.8098    71.1553     8.7171
 2029.0000    56.3391     2.4495     0.1318    44.0163    66.3253     8.5690
 2029.5000    58.5795     2.5509     0.1021    50.3293    68.5358     8.6796
 2030.0000    50.3318     2.4995     0.1441    36.9321    71.5337     8.5000
 2030.5000    50.8334     2.4839     0.1440    48.6993    68.0891     8.5000
 2031.0000    45.2733     2.5177     0.1040    34.6666    65.3388     8.5597
 2031.5000    43.8773     2.5142     0.1036    47.9103    65.5391     9.0268
 2032.0000    52.9857     2.5172     0.1100    40.8318    67.4504     8.8779
 2032.5000    54.7812     2.5484     0.1070    43.3746    66.0935     8.8896
 2033.0000    46.7303     2.5588     0.1082    69.7193    63.7641     8.9708
 2033.5000    51.2127     2.5261     0.1249    68.7670    62.7622     8.6266
 2034.0000    47.1232     2.5306     0.0886    62.6921    61.9790     8.6592
 2034.5000    41.2257     2.5454     0.0758    43.1179    60.1980     8.5000
 2035.0000    45.4119     2.4902     0.0637    52.4050    64.5682     8.5052
 2035.5000    50.4669     2.5194     0.0701    75.6797    60.0026     8.7847
 2036.0000    41.7885     2.6112     0.0774    59.9823    62.4074     8.9612
 2036.5000    49.0019     2.6248     0.1016   100.3435    62.3582     8.5582
 2037.0000    27.3118     2.5731     0.0639    65.1796    60.6721     8.5000
 2037.5000    43.7737     2.6029     0.0720    62.9107    57.1902     8.6002
 2038.0000    39.3756     2.5997     0.0655    56.6057    58.2578     8.7804
 2038.5000    36.7450     2.6874     0.0808    63.2250    56.8183     8.5000
 2039.0000    38.0227     2.6332     0.0982    59.6428    54.4958     8.5000
 2039.5000    26.9748     2.6001     0.0500    73.1799    56.4092     8.5000
 2040.0000    35.1886     2.5794     0.0500    77.8990    52.8811     8.5000
 2040.5000    37.4733     2.5639     0.0684    52.3655    57.1151     8.5000
 2041.0000    42.5050     2.6220     0.0607    46.3239    53.3337     8.5557
 2041.5000    31.9795     2.5968     0.0760    41.3136    54.2114     8.5000
 2042.0000    30.0121     2.5803     0.0550    70.9248    53.9454     9.0357
 2042.5000    31.0582     2.6068     0.0500    48.9156    52.4547     8.6980
 2043.0000    37.6859     2.5968     0.0513    38.3513    53.7641     8.6901
 2043.5000    34.3243     2.6827     0.0574    68.6615    51.2840     8.7867
 2044.0000    29.6338     2.6612     0.0514   111.0306    53.6448     8.5000
 2044.5000    34.4818     2.6370     0.0500    62.1335    50.0000     8.9117
 2045.0000    32.0650     2.6839     0.0523    75.0024    51.5691     8.5773
 2045.5000    36.1184     2.6438     0.0526    62.5473    54.9405     8.8011
 2046.0000    27.4925     2.6175     0.0547    59.4899    50.0000     8.5000
 2046.5000    29.1242     2.6906     0.0500    74.4828    50.0000     8.5000
 2047.0000    28.5942     2.6625     0.0500    55.7763    51.4901     8.8454
 2047.5000    23.0622     2.6164     0.0500    62.6702    50.6756     8.7129
 2048.0000    31.7182     2.6427     0.0500    62.6403    50.8993     8.5000
 2048.5000    31.4338     2.6229     0.0500    49.1768    51.0855     8.5000
 2049.0000    30.0783     2.6082     0.0500    70.9879    51.3134     8.9376
 2049.5000    28.8372     2.6777     0.0500    53.3857    52.2278     8.5000
 2050.0000    22.9240     2.7073     0.0500    45.9010    50.8203     9.0928
 2050.5000    27.9216     2.6079     0.0500    60.6823    50.0000     8.5000
 2051.0000    28.3686     2.6663     0.0500    42.7684    51.4137     8.7915
 2051.5000    26.1614     2.6293     0.0500    51.8675    53.9438     8.5014
