~VERSION INFORMATION
 VERS.                  2.0: CWLS LOG ASCII STANDARD - VERSION 2.0
 WRAP.                   NO: ONE LINE PER DEPTH STEP
~WELL INFORMATION BLOCK
#MNEM.UNIT       DATA                           DESCRIPTION
#----.----       ------------------------------ ----------------------------------
 STRT.FT         2000.0000                      :START DEPTH
 STOP.FT         2200.0000                      :STOP DEPTH
 STEP.FT            0.5000                      :STEP
 NULL.           -999.2500                      :NULL VALUE
 COMP.           GEOMIND AI                     :COMPANY
 WELL.           WELL-01                        :WELL
 FLD .           EXPLORATION FIELD              :FIELD
 LOC .           OFFSHORE                       :LOCATION
 SRVC.           GEOPHYSICAL SERVICES           :SERVICE COMPANY
 DATE.           2026-08-20                     :LOG DATE
 UWI .           12-345-67890-00                :UNIQUE WELL ID
~CURVE INFORMATION BLOCK
#MNEM.UNIT       API CODE                       CURVE DESCRIPTION
#----.----       ------------------------------ ----------------------------------
 DEPTH.FT                                       :1  DEPTH
 GR   .GAPI                                     :2  GAMMA RAY
 RHOB .G/CC                                     :3  BULK DENSITY
 NPHI .V/V                                      :4  NEUTRON POROSITY
 RT   .OHMM                                     :5  TRUE RESISTIVITY
 DT   .US/F                                     :6  SONIC TRANSIT TIME
 CALI .IN                                       :7  CALIPER
~PARAMETER INFORMATION BLOCK
#MNEM.UNIT       VALUE                          DESCRIPTION
#----.----       ------------------------------ ----------------------------------
 BSIZ.IN            8.5000                      :BIT SIZE
~A DEPTH       GR         RHOB       NPHI       RT         DT         CALI
# ...
 2156.0000    43.0302     2.6026     0.0679    45.1667    55.8437     8.5000
 2156.5000    43.6932     2.5847     0.0740    67.4795    56.7797     8.5000
 2157.0000    46.8983     2.6140     0.1075    56.4050    58.3061     8.5000
 2157.5000    41.2429     2.5792     0.0737    39.4274    58.3374     8.7319
 2158.0000    45.3356     2.5750     0.0807    78.1932    55.9796     8.8337
 2158.5000    41.1825     2.5542     0.0967    69.0183    62.1074     8.7373
 2159.0000    45.1819     2.5579     0.1008    60.7748    59.1554     9.1023
 2159.5000    43.7558     2.5632     0.1054    51.4121    62.4840     8.5983
 2160.0000    45.7543     2.4969     0.1007    44.2090    66.8726     8.8006
 2160.5000    49.1243     2.5019     0.0774    51.4650    61.6183     8.5000
 2161.0000    42.9520     2.5587     0.1227    73.1842    59.1420     8.5000
 2161.5000    58.4140     2.5354     0.0846    89.1946    64.3880     8.8087
 2162.0000    43.8443     2.5187     0.1100    83.5729    67.9306     8.8547
 2162.5000    43.7381     2.5185     0.0979    52.9954    70.4243     8.5118
 2163.0000    56.5456     2.5221     0.1121    46.3511    64.8368     8.5785
 2163.5000    55.6697     2.4891     0.1218    62.5925    69.0862     8.5000
 2164.0000    55.7975     2.4755     0.1255    40.6924    67.9668     8.5000
 2164.5000    56.7923     2.4982     0.1309    66.3904    69.4969     8.8671
 2165.0000    54.5700     2.4564     0.1527    59.9745    75.8147     8.7726
 2165.5000    51.1316     2.4915     0.1393    56.0487    68.3423     8.7502
 2166.0000    56.9884     2.4215     0.1328    43.4155    72.6820     8.6149
 2166.5000    54.2189     2.4968     0.1549    70.7820    73.9393     8.6021
 2167.0000    63.4782     2.4735     0.1623    55.7496    76.0071     8.5000
 2167.5000    58.8669     2.4603     0.1300    48.1913    74.8644     8.8096
 2168.0000    56.4746     2.4755     0.1614    32.5599    76.1178     8.7263
 2168.5000    59.9944     2.4893     0.1669    62.6047    75.5512     8.7476
 2169.0000    64.6635     2.4631     0.1559    94.5220    77.7040     8.5000
 2169.5000    60.7749     2.3708     0.1850    91.8088    77.3082     8.5000
 2170.0000    60.4730     2.3811     0.1661    56.1050    80.0632     8.9291
 2170.5000    66.7881     2.3941     0.1742    53.9443    78.9021     8.5000
 2171.0000    67.7738     2.4071     0.1736    68.5496    81.2117     8.5000
 2171.5000    64.9863     2.4154     0.1803    48.5017    81.2090     8.8080
 2172.0000    66.1296     2.3717     0.1675    64.8263    84.3227     8.5000
 2172.5000    70.5993     2.3927     0.1662    71.3951    82.7631     8.9180
 2173.0000    63.1424     2.3581     0.2154    78.4795    80.1063     8.7851
 2173.5000    64.2778     2.3562     0.1826    57.0910    86.9531     8.8051
 2174.0000    68.6425     2.3262     0.1841    54.9866    83.3842     8.5000
 2174.5000    72.0736     2.3347     0.1703    46.3865    84.6432     8.9636
 2175.0000    75.5869     2.3159     0.1965    46.1951    85.5023     8.6784
 2175.5000    82.2850     2.3213     0.1898    52.1511    90.1724     8.5000
 2176.0000    80.0559     2.3765     0.2377    58.7236    83.8683     8.6430
 2176.5000    75.8097     2.3108     0.2316    65.3344    95.1167     8.5000
 2177.0000    77.3377     2.4128     0.2094    43.1241    91.6394     8.7226
 2177.5000    73.2242     2.3432     0.2567    71.6333    90.6438     8.5000
 2178.0000    78.9280     2.3287     0.2408    46.6768    90.7407     8.5000
 2178.5000    78.3399     2.2924     0.2243    48.3068    92.0571     8.5000
 2179.0000    82.1374     2.3342     0.1946    39.8958    93.1454     8.9338
 2179.5000    77.1055     2.2911     0.2693    26.4426    93.9918     8.5000
 2180.0000    84.5326     2.3074     0.2169    55.1822    94.3911     9.0601
 2180.5000    90.2694     2.3761     0.2157    51.9201    94.0172     8.5000
 2181.0000    82.7066     2.2921     0.2583    39.9369    93.9807     8.5000
 2181.5000    85.8779     2.3253     0.2821    42.0406    94.5886     8.5000
 2182.0000    87.9125     2.2658     0.2686    45.2523    94.9950     8.9707
 2182.5000    83.0208     2.2821     0.2586    27.1951    98.1233     8.5532
 2183.0000    86.6848     2.3327     0.2612    33.4327    97.4907     8.5000
 2183.5000    86.1363     2.2574     0.2671    43.9008    90.8470     8.6480
 2184.0000    87.0418     2.3274     0.2676    26.4993    98.4396     8.7505
 2184.5000    83.1389     2.2912     0.2622    36.5843    97.8928     8.9352
 2185.0000    87.5470     2.2503     0.2613    24.1669    97.8163     9.0345
 2185.5000    90.3045     2.2835     0.2603    35.4927    97.4018     8.5000
 2186.0000    95.4294     2.2914     0.2514    30.4954   100.7263     8.5000
 2186.5000    93.2979     2.2786     0.2598    20.4307   100.6464     8.5000
 2187.0000    99.5637     2.2109     0.2398    37.3226    97.4524     8.6781
 2187.5000    85.2252     2.2344     0.2648    23.1983   100.0324     8.5000
 2188.0000    93.6555     2.2473     0.2523    21.9298    97.4683     8.5000
 2188.5000    90.4100     2.2511     0.2514    26.6070    96.8185     8.7031
 2189.0000   100.6089     2.2709     0.2713    31.8002    98.4631     8.5854
 2189.5000    85.7520     2.2567     0.2901    18.5510   101.5527     8.6098
 2190.0000    85.6955     2.2106     0.2834    22.8177   101.8180     8.5000
 2190.5000    86.9644     2.2617     0.2463    23.8187   100.9940     8.5309
 2191.0000    79.3760     2.2683     0.2551    24.2701   101.4464     8.5000
 2191.5000    87.3674     2.2668     0.2841    20.6506   101.0292     8.8671
 2192.0000    86.1679     2.2827     0.2551    17.4553    98.6867     8.9106
 2192.5000    90.6497     2.2757     0.2662    15.0327   100.7786     8.5000
 2193.0000    91.5074     2.2651     0.2774    17.7589   101.4330     8.5000
 2193.5000    99.0472     2.2501     0.2541    13.0149   101.2306     8.5000
 2194.0000    94.2533     2.2035     0.2696     8.1327   101.9622     8.5000
 2194.5000    86.4187     2.2675     0.2472    16.8506   100.8360     8.5750
 2195.0000    84.5807     2.2624     0.2573    17.9403    99.9302     8.5000
 2195.5000    91.2695     2.2661     0.2700     8.0819   101.1486     8.5000
 2196.0000    81.9140     2.2216     0.2402    10.5467    98.7096     8.5000
 2196.5000    97.3459     2.2296     0.2694    14.6626    96.7268     8.6622
 2197.0000    93.7280     2.2961     0.2610    19.5068    97.8662     8.6208
 2197.5000    85.0962     2.2659     0.2681    11.6574    96.3786     8.5000
 2198.0000    78.4572     2.2903     0.2615     9.3707    96.1687     8.6530
 2198.5000    93.3430     2.2737     0.2768    10.1461    96.8556     8.5000
 2199.0000    85.5222     2.2769     0.2563    13.8702    95.1609     8.5185
 2199.5000    91.7762     2.3076     0.2459     8.3176    95.7067     9.1020
 2200.0000    77.0788     2.2675     0.2520     7.6681    92.0885     9.0021
